City_ID,City,Lat,Lng,Max Temp,Humidity,Cloudiness,Wind Speed,Country,Date
0,albany,42.6001,-73.9662,2.41,76,93,0.72,US,1699923133
1,iqaluit,63.7506,-68.5145,-17.95,64,0,2.57,CA,1699923352
2,isafjordur,66.0755,-23.124,1.61,86,57,2.89,IS,1699923352
3,wailua homesteads,22.0669,-159.378,28.24,84,100,6.17,US,1699923352
4,blackmans bay,-43.0167,147.3167,17.51,47,23,1.34,AU,1699923352
5,enewetak,11.3474,162.3373,28.4,80,70,8.88,MH,1699923259
6,kongolo,-5.3833,27.0,20.56,99,100,1.25,CD,1699923353
7,thurso,58.5927,-3.5259,8.14,81,99,9.63,GB,1699923353
8,hobyo,5.3505,48.5268,26.37,84,32,2.22,SO,1699923255
9,edinburgh of the seven seas,-37.0676,-12.3116,13.62,77,8,11.32,SH,1699923353
10,port-aux-francais,-49.35,70.2167,6.69,97,100,16.34,TF,1699923353
11,adamstown,-25.066,-130.1015,22.85,85,100,7.76,PN,1699923353
12,college,64.8569,-147.8028,-2.74,94,100,2.57,US,1699923353
13,bilibino,68.0546,166.4372,-27.84,100,100,1.88,RU,1699923354
14,waitangi,-43.9535,-176.5597,13.21,88,1,9.08,NZ,1699923354
15,mejit,10.2753,170.8646,27.93,80,93,8.19,MH,1699923062
16,ushuaia,-54.8,-68.3,2.81,75,40,8.75,AR,1699923239
17,guerrero negro,27.9769,-114.0611,20.89,54,100,4.59,MX,1699923354
18,beitbridge,-22.2167,30.0,19.04,82,8,9.91,ZW,1699923354
19,petukhovo,55.0692,67.9019,3.41,82,100,6.89,RU,1699923355
20,saint-pierre,-21.3393,55.4781,23.09,64,61,2.57,RE,1699923071
21,puerto natales,-51.7236,-72.4875,1.06,85,87,3.51,CL,1699923355
22,chonchi,-42.6128,-73.8092,6.56,88,68,1.53,CL,1699923355
23,al bawiti,28.3492,28.8659,19.07,55,0,2.43,EG,1699923355
24,bridgeport,41.167,-73.2048,7.0,78,27,0.45,US,1699923190
25,west island,-12.1568,96.8225,26.99,78,75,4.12,CC,1699923355
26,kamaishi,39.2667,141.8833,8.98,64,66,4.54,JP,1699923356
27,port blair,11.6667,92.75,25.02,94,100,1.03,IN,1699923356
28,plettenberg bay,-34.0527,23.3716,13.86,87,0,4.42,ZA,1699923060
29,sandnessjoen,66.0217,12.6316,-11.71,68,19,4.53,NO,1699923356
30,lumding railway colony,25.749,93.17,17.79,95,33,0.49,IN,1699923356
31,hermanus,-34.4187,19.2345,15.64,77,11,9.8,ZA,1699923356
32,holualoa,19.6228,-155.9522,28.21,73,40,5.14,US,1699923356
33,remire-montjoly,4.9167,-52.2667,26.02,89,0,1.54,GF,1699923280
34,talnakh,69.4865,88.3972,-17.4,97,52,4.55,RU,1699923086
35,keflavik,64.0049,-22.5624,7.24,65,0,7.72,IS,1699923357
36,grytviken,-54.2811,-36.5092,2.29,98,100,3.44,GS,1699923357
37,charters towers,-20.1,146.2667,30.86,25,0,6.15,AU,1699923357
38,hotan,37.0997,79.9269,5.25,25,100,2.71,CN,1699923359
39,carnot,4.9409,15.8665,21.58,95,17,0.67,CF,1699923360
40,tiksi,71.6872,128.8694,-15.17,93,100,2.61,RU,1699923360
41,kalmunai,7.4167,81.8167,25.07,89,70,1.73,LK,1699923360
42,nouadhibou,20.931,-17.0347,23.99,38,13,6.17,MR,1699923360
43,utrik,11.2278,169.8474,28.16,81,100,7.99,MH,1699923232
44,maslyanino,54.3436,84.2111,1.19,98,100,3.49,RU,1699923360
45,rasht,37.2808,49.5832,15.9,89,5,1.41,IR,1699923187
46,chania,35.5122,24.0156,16.78,88,20,0.0,GR,1699923361
47,puerto san jose,13.9256,-90.8244,27.35,84,94,2.24,GT,1699923361
48,berezovyy,51.6667,135.7,-6.58,55,0,1.05,RU,1699923361
49,kununurra,-15.7667,128.7333,31.99,66,99,1.03,AU,1699923170
50,boa vista,2.8197,-60.6733,29.99,58,20,3.09,BR,1699923361
51,kattivakkam,13.2167,80.3167,25.6,90,100,7.0,IN,1699923362
52,pyhajarvi,67.0701,27.2176,-18.94,100,100,1.93,FI,1699923362
53,kapuskasing,49.4169,-82.4331,1.05,93,100,4.12,CA,1699923362
54,whitehorse,60.7161,-135.0538,-4.43,85,100,7.72,CA,1699923362
55,luderitz,-26.6481,15.1594,15.28,81,0,1.94,NA,1699923362
56,yellowknife,62.456,-114.3525,-6.71,86,100,2.06,CA,1699923363
57,nelson bay,-32.7167,152.15,24.03,74,60,4.47,AU,1699923277
58,ancud,-41.8697,-73.8203,6.74,71,28,4.2,CL,1699923363
59,tondi,9.7333,79.0167,24.12,93,100,7.24,IN,1699923363
60,uvira,-3.4067,29.1458,21.99,87,94,1.33,CD,1699923363
61,ar ruways,24.1103,52.7306,26.57,59,100,2.53,AE,1699923242
62,dingcheng,32.1272,115.0394,6.94,48,0,1.79,CN,1699923363
63,tingo maria,-9.2895,-76.0088,22.06,98,72,1.12,PE,1699923364
64,la ronge,55.1001,-105.2842,2.14,64,100,6.17,CA,1699923364
65,afaahiti,-17.75,-149.2833,27.93,89,99,5.98,PF,1699923364
66,aasiaat,68.7098,-52.8699,-10.17,83,100,1.56,GL,1699923364
67,bredasdorp,-34.5322,20.0403,14.81,81,9,7.13,ZA,1699923364
68,stanley,54.868,-1.6985,8.77,90,20,6.17,GB,1699923365
69,quibdo,5.6947,-76.6611,26.19,100,75,0.0,CO,1699923365
70,kapa'a,22.0752,-159.319,28.99,84,100,6.17,US,1699923365
71,bethel,41.3712,-73.414,5.83,76,75,1.54,US,1699923365
72,zuunmod,47.7069,106.9528,-18.43,81,100,1.16,MN,1699923365
73,zarechnyy,53.2036,45.1923,5.41,87,100,4.47,RU,1699923365
74,shevchenko,48.5,35.0,6.1,66,10,1.97,UA,1699923366
75,brookings,44.3114,-96.7984,11.21,45,23,8.07,US,1699923366
76,puerto deseado,-47.7503,-65.8938,9.13,52,100,10.86,AR,1699923366
77,lebu,-37.6167,-73.65,10.1,87,53,3.15,CL,1699923366
78,constitucion,-35.3333,-72.4167,10.35,84,10,6.61,CL,1699923366
79,weno,7.4515,151.8468,28.4,74,100,2.6,FM,1699923366
80,kodiak,57.79,-152.4072,6.73,49,40,7.2,US,1699923210
81,arraial do cabo,-22.9661,-42.0278,24.98,88,0,2.57,BR,1699923243
82,rio grande,-32.035,-52.0986,20.06,93,100,4.78,BR,1699923367
83,aldama,22.9167,-98.0667,23.61,75,100,2.19,MX,1699923367
84,northam,51.0333,-4.2167,12.92,91,100,11.18,GB,1699923367
85,ifanadiana,-21.3,47.6333,18.78,96,15,0.71,MG,1699923367
86,invercargill,-46.4,168.35,14.99,55,74,4.96,NZ,1699923367
87,saint-louis,16.3333,-15.0,27.8,17,17,3.9,SN,1699923368
88,georgetown,5.4112,100.3354,28.3,89,20,2.06,MY,1699923068
89,choyr,46.3611,108.3611,-12.9,82,17,1.61,MN,1699923368
90,ta`u,-14.2336,-169.5144,28.29,80,22,5.98,AS,1699923368
91,thompson,55.7435,-97.8558,-1.91,86,100,2.06,CA,1699923368
92,petropavlovsk-kamchatsky,53.0452,158.6483,-3.08,74,0,12.52,RU,1699923278
93,chardon,41.6142,-81.149,10.9,72,0,2.24,US,1699923369
94,longyearbyen,78.2186,15.6401,-10.09,85,75,4.63,SJ,1699923369
95,margaret river,-33.95,115.0667,17.11,75,100,5.28,AU,1699923281
96,bel ombre,-4.6167,55.4167,27.91,78,20,2.06,SC,1699923369
97,chorozinho,-4.3003,-38.4978,23.21,91,29,1.28,BR,1699923369
98,kavaratti,10.5669,72.642,27.36,71,44,1.43,IN,1699923369
99,vilyuchinsk,52.9306,158.4028,-2.26,69,100,2.65,RU,1699923370
100,lihue,21.9789,-159.3672,29.58,79,100,6.17,US,1699923074
101,badger,64.8,-147.5333,-2.79,95,100,2.57,US,1699923370
102,vung tau,10.346,107.0843,27.12,77,85,1.74,VN,1699923370
103,port alfred,-33.5906,26.891,13.99,94,94,5.23,ZA,1699923370
104,nuuk,64.1835,-51.7216,-3.66,86,100,6.17,GL,1699923371
105,happy valley-goose bay,53.3168,-60.3315,-3.83,74,40,5.66,CA,1699923126
106,rongelap,11.1635,166.8941,28.14,82,100,7.51,MH,1699923130
107,srivardhan,18.0333,73.0167,24.42,68,31,1.9,IN,1699923371
108,serang,-6.1149,106.1502,28.86,72,100,0.65,ID,1699923371
109,ribeira grande,38.5167,-28.7,15.99,90,100,1.34,PT,1699923371
110,angaur state,6.906,134.13,29.08,74,54,5.51,PW,1699923371
111,trincomalee,8.5711,81.2335,26.1,84,99,1.65,LK,1699923372
112,vernon,50.2581,-119.2691,9.2,49,4,1.54,CA,1699923372
113,hamilton,39.1834,-84.5333,11.75,50,0,2.06,US,1699923212
114,campo grande,-20.4428,-54.6464,29.75,48,0,3.6,BR,1699923276
115,kuala belait,4.5833,114.1833,27.09,81,100,1.85,BN,1699923372
116,tsiombe,-25.3,45.4833,21.73,83,98,2.4,MG,1699923076
117,saguenay,48.4168,-71.0657,-5.94,89,20,2.06,CA,1699923307
118,petauke,-14.2426,31.3253,23.68,54,62,4.73,ZM,1699923373
119,labrador city,52.9463,-66.9114,-9.05,86,100,1.54,CA,1699923373
120,huarmey,-10.0681,-78.1522,20.2,84,98,4.43,PE,1699923373
121,shahin dezh,36.6793,46.5669,10.85,53,6,1.95,IR,1699923373
122,kol'chugino,56.3,39.3833,3.49,86,99,6.07,RU,1699923373
123,papatowai,-46.5619,169.4708,17.58,47,53,5.14,NZ,1699923373
124,atafu village,-8.5421,-172.5159,28.29,81,100,5.58,TK,1699923374
125,sinabang,2.4803,96.3801,24.14,93,100,1.31,ID,1699923374
126,susuman,62.7833,148.1667,-30.13,98,77,0.44,RU,1699923374
127,new plymouth,-39.0667,174.0833,15.73,68,100,6.18,NZ,1699923374
128,porto novo,6.4965,2.6036,24.9,86,3,1.1,BJ,1699923374
129,al kharijah,25.4514,30.5464,22.56,49,1,4.91,EG,1699923374
130,urengoy,65.9667,78.3667,-21.4,99,11,1.94,RU,1699923375
131,iskateley,67.6803,53.1512,-11.1,88,100,4.02,RU,1699923375
132,ashburton,-37.8626,145.0794,16.19,75,100,1.79,AU,1699923375
133,carnarvon,-24.8667,113.6333,21.41,68,100,2.97,AU,1699923375
134,veraval,20.9,70.3667,24.66,37,100,3.89,IN,1699923376
135,chapadinha,-3.7417,-43.3603,25.07,80,8,2.38,BR,1699923376
136,crane,31.3974,-102.3501,11.2,83,100,3.49,US,1699923233
137,shalkar,47.8288,59.6258,4.93,80,100,6.12,KZ,1699923376
138,udachny,66.4167,112.4,-5.86,85,100,3.85,RU,1699923376
139,manismata,-2.4667,111.0333,28.28,77,50,1.38,ID,1699923376
140,ash shatrah,31.4117,46.1742,22.17,33,0,1.96,IQ,1699923376
141,kone,-21.0595,164.8658,28.27,40,5,3.98,NC,1699923377
142,sunne,59.8376,13.143,-0.77,90,100,3.56,SE,1699923377
143,alaghsas,17.0187,8.0168,23.4,15,5,4.87,NE,1699923320
144,ko pha ngan,9.7578,100.0291,24.38,73,100,6.46,TH,1699923377
145,ojinaga,29.5667,-104.4167,16.43,88,0,2.57,MX,1699923378
146,ad dabbah,18.05,30.95,26.65,35,97,4.12,SD,1699923378
147,richards bay,-28.783,32.0377,17.66,83,100,4.74,ZA,1699923187
148,zheleznogorsk,52.331,35.3711,3.81,78,100,6.31,RU,1699923378
149,culpeper,38.5004,-77.9664,7.79,77,0,0.45,US,1699923378
150,bathsheba,13.2167,-59.5167,28.34,74,20,9.26,BB,1699923378
151,tofol,5.3248,163.0078,30.88,70,75,4.12,FM,1699923379
152,flying fish cove,-10.4217,105.6791,25.82,78,100,3.6,CX,1699923379
153,salekhard,66.53,66.6019,-20.66,100,100,0.36,RU,1699923379
154,xining,36.6167,101.7667,0.31,53,0,0.87,CN,1699923379
155,east london,-33.0153,27.9116,15.94,73,99,2.85,ZA,1699923379
156,byron bay,-28.65,153.6167,27.06,69,55,3.71,AU,1699923379
157,olyokminsk,60.3736,120.4264,-9.27,94,100,1.98,RU,1699923380
158,levuka,50.1834,-105.4011,1.9,64,61,4.47,CA,1699923380
159,vila franca do campo,37.7167,-25.4333,17.23,99,67,1.85,PT,1699923380
160,saipan,15.1355,145.701,31.39,70,20,7.72,MP,1699923226
161,raton,36.9034,-104.4391,9.19,31,0,4.12,US,1699923380
162,trooper,40.1498,-75.4018,7.53,72,0,0.45,US,1699923381
163,dunedin,-45.8742,170.5036,15.45,65,99,3.13,NZ,1699923247
164,andovoranto,-18.95,49.1,22.46,91,98,1.46,MG,1699923381
165,codrington,-38.2667,141.9667,15.67,62,100,4.18,AU,1699923381
166,howrah,22.5892,88.3103,20.0,88,20,3.09,IN,1699923381
167,horta,38.5333,-28.6333,15.57,90,100,1.34,PT,1699923382
168,idri,27.5,13.2667,17.96,54,96,3.5,LY,1699923382
169,puerto lempira,15.2667,-83.7667,26.12,90,100,3.11,HN,1699923382
170,marka,1.7159,44.7717,27.03,79,100,3.09,SO,1699923382
171,tralee,52.2704,-9.7026,11.08,88,100,6.19,IE,1699923383
172,puerto ayora,-0.7393,-90.3518,23.64,97,100,1.34,EC,1699923383
173,ust-nera,64.5667,143.2,-28.83,97,59,2.16,RU,1699923383
174,minas de marcona,-15.2119,-75.1103,14.48,87,67,5.82,PE,1699923383
175,mezhdurechenskiy,59.6,65.9333,0.65,97,100,5.22,RU,1699923383
176,shamakhi,40.6314,48.6414,10.89,66,76,2.42,AZ,1699923384
177,inhambane,-23.865,35.3833,21.71,68,100,6.51,MZ,1699923121
178,vorgashor,67.5833,63.95,-14.16,90,100,3.41,RU,1699923384
179,kiama,-34.6833,150.8667,25.77,66,48,5.68,AU,1699923384
180,yarmouth,41.7057,-70.2286,4.52,83,100,1.34,US,1699923384
181,banda aceh,5.5577,95.3222,26.67,84,100,3.97,ID,1699923385
182,palangkaraya,-2.2,113.8333,28.69,74,97,1.33,ID,1699923385
183,necochea,-38.5473,-58.7368,14.45,51,94,5.33,AR,1699923228
184,anadyr,64.75,177.4833,-11.72,72,13,10.0,RU,1699923385
185,sur,22.5667,59.5289,23.86,52,3,0.19,OM,1699923385
186,lompoc,34.6391,-120.4579,18.94,67,0,4.47,US,1699923258
187,flin flon,54.7682,-101.865,-0.09,86,75,2.06,CA,1699923385
188,nieuw amsterdam,5.8833,-55.0833,27.23,84,24,3.72,SR,1699923386
189,tabou,4.423,-7.3528,25.51,90,3,2.44,CI,1699923386
190,wagar,16.1525,36.2032,26.83,64,11,4.83,SD,1699923386
191,morris,40.8334,-74.5329,7.23,76,32,1.77,US,1699923168
192,nikolayevsk-on-amure,53.1406,140.73,-6.49,85,100,3.18,RU,1699923386
193,parana,-31.732,-60.5238,20.86,77,4,4.37,AR,1699923386
194,kerikeri,-35.2268,173.9474,22.17,68,100,1.34,NZ,1699923125
195,sandpoint,48.2766,-116.5533,6.36,87,100,3.6,US,1699923378
196,loreto,22.2667,-101.9667,18.19,63,100,5.99,MX,1699923358
197,kangding,30.0513,101.9603,9.86,34,9,2.36,CN,1699923387
198,lorengau,-2.0226,147.2712,27.96,80,100,2.86,PG,1699923158
199,severo-yeniseyskiy,60.3725,93.0408,-10.64,94,100,3.49,RU,1699923387
200,gereshk,31.8209,64.5701,13.8,34,10,2.31,AF,1699923388
201,sisimiut,66.9395,-53.6735,-8.79,78,100,3.51,GL,1699923388
202,port elizabeth,-33.918,25.5701,17.16,86,100,5.14,ZA,1699923288
203,tromso,69.6496,18.957,-7.99,86,56,0.0,NO,1699923388
204,bender,46.8306,29.4711,1.43,59,7,2.21,MD,1699923388
205,kitui,-1.367,38.0106,17.87,95,50,0.96,KE,1699923388
206,diawara,15.022,-12.5437,28.04,10,70,5.04,SN,1699923389
207,sirjan,29.452,55.6814,13.12,21,100,3.14,IR,1699923389
208,peine,52.3167,10.2333,12.58,85,100,3.58,DE,1699923389
209,salinopolis,-0.6136,-47.3561,26.69,80,62,4.92,BR,1699923121
210,bath,51.3779,-2.3591,12.17,89,95,8.75,GB,1699923245
211,pekan,3.4836,103.3996,26.06,84,100,2.02,MY,1699923389
212,qaqortoq,60.7167,-46.0333,-5.14,93,100,1.62,GL,1699923389
213,hilo,19.7297,-155.09,27.85,65,40,3.6,US,1699923327
214,alofi,-19.0595,-169.9187,25.94,89,100,5.66,NU,1699923390
215,morki,56.4303,48.9947,5.15,86,100,5.38,RU,1699923390
216,prince rupert,54.3161,-130.3201,6.83,78,75,2.57,CA,1699923098
217,axim,4.8699,-2.2405,25.87,89,0,2.06,GH,1699923165
218,antsiranana,-12.2787,49.2917,23.72,86,44,2.94,MG,1699923390
219,jamestown,42.097,-79.2353,8.77,75,0,4.12,US,1699923320
220,klyuchi,52.2667,79.1667,3.16,92,99,4.15,RU,1699923391
221,olonkinbyen,70.9221,-8.7187,-1.67,70,99,2.65,SJ,1699923391
222,coquimbo,-29.9533,-71.3436,14.85,82,0,3.6,CL,1699923391
223,constantia,44.1833,28.65,2.38,50,31,4.18,RO,1699923391
224,zaozersk,69.4005,32.4476,-13.08,100,93,1.1,RU,1699923391
225,avarua,-21.2078,-159.775,24.03,60,75,4.63,CK,1699923391
226,dhidhdhoo,6.8833,73.1,27.72,74,41,1.25,MV,1699923165
227,pajapan,18.25,-94.7,23.51,90,85,4.79,MX,1699923392
228,ciudad acuna,29.3232,-100.9522,15.16,88,100,2.06,MX,1699923392
229,ilulissat,69.2167,-51.1,-3.99,63,75,7.2,GL,1699923392
230,tomatlan,19.9333,-105.25,25.18,83,11,0.57,MX,1699923392
231,riverton,40.5219,-111.9391,14.36,26,0,4.47,US,1699923392
232,magadan,59.5667,150.8,-14.05,73,75,5.64,RU,1699923393
233,kill devil hills,36.0307,-75.676,9.99,80,0,0.0,US,1699923393
234,grand falls-windsor,48.9332,-55.6649,-2.93,88,41,1.94,CA,1699923393
235,walvis bay,-22.9575,14.5053,16.53,82,34,3.09,NA,1699923393
236,sitka,57.0531,-135.33,5.94,81,100,3.6,US,1699923393
237,daru,-9.0763,143.2092,28.95,58,28,3.56,PG,1699923393
238,portland,45.5234,-122.6762,12.12,83,100,0.45,US,1699923218
239,cestos city,5.46,-9.5828,26.17,87,95,2.3,LR,1699923394
240,al quwayrah,29.8004,35.3116,19.0,57,13,0.71,JO,1699923394
241,shahrak,34.1074,64.3052,2.43,35,1,1.84,AF,1699923394
242,uturoa,-16.7333,-151.4333,26.95,83,61,6.91,PF,1699923394
243,naze,28.3667,129.4833,16.51,59,80,3.74,JP,1699923394
244,aldinga beach,-35.2793,138.4604,18.9,83,100,4.17,AU,1699923189
245,aksu,41.1231,80.2644,3.09,43,0,1.66,CN,1699923395
246,pursat,12.3333,103.6667,26.38,79,92,2.24,KH,1699923395
247,rundu,-17.9333,19.7667,24.36,36,57,1.22,NA,1699923395
248,ballina,-28.8667,153.5667,27.1,70,72,4.3,AU,1699923395
249,zadar,44.1197,15.2422,14.34,94,75,4.12,HR,1699923395
250,laminusa,5.5549,120.9136,28.4,75,98,0.79,PH,1699923395
251,mana,5.6592,-53.7767,26.64,85,5,4.14,GF,1699923396
252,sanya,18.2431,109.505,26.09,69,0,7.0,CN,1699923396
253,al hudaydah,14.7978,42.9545,27.67,70,96,6.04,YE,1699923396
254,san ignacio de velasco,-16.3667,-60.95,28.43,51,1,2.79,BO,1699923396
255,ranau,5.9538,116.6641,26.43,75,46,1.0,MY,1699923396
256,esil,51.9556,66.4042,3.26,84,100,5.95,KZ,1699923396
257,hawaiian paradise park,19.5933,-154.9731,27.73,69,40,3.6,US,1699923396
258,pauini,-7.7136,-66.9764,25.11,85,30,1.35,BR,1699923397
259,lautoka,-17.6167,177.4667,31.92,58,75,4.63,FJ,1699923151
260,tateyama,34.9833,139.8667,13.95,45,3,2.36,JP,1699923397
261,bukoba,-1.3317,31.8122,17.63,88,73,2.14,TZ,1699923397
262,mammoth lakes,37.6485,-118.9721,3.4,28,0,1.54,US,1699923397
263,nemuro,43.3236,145.575,4.75,58,14,8.24,JP,1699923397
264,altamira,-3.2033,-52.2064,30.62,40,100,1.9,BR,1699923398
265,sanctuary point,-35.1114,150.629,22.89,63,97,3.36,AU,1699923398
266,yuktae-dong,40.0247,128.1597,5.55,42,100,1.42,KP,1699923398
267,dromore,54.5167,-7.4667,9.24,92,100,3.08,GB,1699923398
268,pong,19.1493,100.2752,22.52,97,87,0.32,TH,1699923398
269,vila velha,-20.3297,-40.2925,26.97,84,0,5.36,BR,1699923398
270,dryden,49.7833,-92.7503,1.16,80,40,2.57,CA,1699923399
271,sao jose da coroa grande,-8.8978,-35.1478,25.3,85,100,3.2,BR,1699923399
272,wewak,-3.5534,143.6268,28.88,74,99,1.05,PG,1699923399
273,javea,38.7833,0.1667,18.27,69,18,0.89,ES,1699923399
274,hacienda huancane,-15.8222,-70.8856,6.88,61,11,4.66,PE,1699923399
275,hithadhoo,-0.6,73.0833,27.05,81,70,3.87,MV,1699923399
276,ath thawrah,35.8469,38.5443,20.89,50,100,3.83,SY,1699923399
277,bardai,11.65,7.2333,21.64,23,100,3.25,NG,1699923400
278,altamont,42.2068,-121.7372,11.91,65,20,3.6,US,1699923400
279,san miguel,13.4833,-88.1833,24.82,94,96,0.55,SV,1699923400
280,thunder bay,48.4001,-89.3168,-1.05,80,40,1.54,CA,1699923106
281,colonia,50.9333,6.95,12.71,76,20,7.72,DE,1699923347
282,areka,7.0667,37.7,17.02,74,98,1.96,ET,1699923400
283,zhangye,38.9342,100.4517,0.36,37,19,3.94,CN,1699923400
284,st austell,50.3383,-4.7658,13.38,88,75,10.29,GB,1699923401
285,nuku'alofa,-21.1333,-175.2,22.19,100,100,8.23,TO,1699923401
286,kudahuvadhoo,2.6708,72.8944,27.38,74,97,1.78,MV,1699923311
287,dakoro,14.5106,6.765,23.07,12,93,4.42,NE,1699923401
288,manihari,25.35,87.6333,19.51,65,43,1.65,IN,1699923401
289,volokonovka,50.4827,37.8563,3.38,86,26,3.19,RU,1699923401
290,ad darb,17.7229,42.2526,28.08,77,8,1.81,SA,1699923402
291,gadani,25.1185,66.7299,19.12,55,100,2.68,PK,1699923402
292,tlahualilo de zaragoza,26.1167,-103.45,16.39,72,100,1.68,MX,1699923402
293,san patricio,28.017,-97.5169,17.69,91,100,5.33,US,1699923402
294,san severino marche,43.2281,13.1802,16.41,78,95,2.73,IT,1699923402
295,nagqu,31.5,92.0,-7.66,39,100,1.96,CN,1699923402
296,butembo,0.15,29.2833,13.49,92,79,1.26,CD,1699923403
297,aykhal,66.0,111.5,-9.03,92,100,4.89,RU,1699923403
298,eldorado at santa fe,35.5264,-105.9347,9.82,47,0,1.34,US,1699923403
299,posto fiscal rolim de moura,-13.0833,-62.2667,24.37,90,76,1.03,BR,1699923403
300,fale old settlement,-9.3852,-171.2468,26.49,89,100,6.38,TK,1699923403
301,ivdel',60.6911,60.4206,1.77,81,100,1.79,RU,1699923308
302,corowa,-36.0333,146.3833,16.9,75,100,4.71,AU,1699923403
303,murzuq,25.9155,13.9184,18.76,53,0,5.02,LY,1699923404
304,hafnarfjordur,64.0671,-21.9377,7.21,53,0,8.75,IS,1699923404
305,muisne,0.6,-80.0333,25.61,85,90,2.78,EC,1699923404
306,gabu,12.2833,-14.2167,24.69,26,16,1.4,GW,1699923404
307,north bend,43.4065,-124.2243,13.95,72,0,2.57,US,1699923392
308,fort st. john,56.2499,-120.8529,-4.06,93,75,6.17,CA,1699923207
309,selkirk,50.1436,-96.8845,4.08,82,100,1.34,CA,1699923330
310,vico del gargano,41.8983,15.9576,9.7,72,100,1.55,IT,1699923405
311,bocas del toro,9.3333,-82.25,24.5,90,100,2.74,PA,1699923405
312,dudinka,69.4058,86.1778,-21.4,90,8,3.5,RU,1699923405
313,berber,18.0216,33.983,27.84,48,100,1.5,SD,1699923405
314,road town,18.4167,-64.6167,28.02,74,40,4.63,VG,1699923344
315,bunia,1.5667,30.25,17.15,92,40,0.43,CD,1699923406
316,balqash,46.8481,74.995,2.96,82,14,3.39,KZ,1699923406
317,south lake tahoe,38.9332,-119.9844,11.94,27,0,5.14,US,1699923337
318,nova sintra,14.8667,-24.7167,23.72,72,100,5.32,CV,1699923266
319,khovd,48.0056,91.6419,-5.73,85,100,1.39,MN,1699923177
320,langtoucun,40.0261,124.3286,1.89,43,100,1.32,CN,1699923407
321,mount gambier,-37.8333,140.7667,15.17,62,100,1.66,AU,1699923123
322,mosjoen,65.836,13.1908,-11.71,92,41,1.03,NO,1699923202
323,yantongshan,43.2919,126.0094,-3.99,77,5,2.64,CN,1699923408
324,hirado,33.3597,129.5531,14.1,61,28,4.93,JP,1699923408
325,eirunepe,-6.6603,-69.8736,25.54,86,88,0.16,BR,1699923408
326,ergani,38.2653,39.7621,14.14,65,100,1.56,TR,1699923323
327,howard springs,-12.497,131.047,32.12,64,45,1.34,AU,1699923246
328,port moresby,-9.4431,147.1797,30.68,51,20,1.54,PG,1699923408
329,ceerigaabo,10.6162,47.368,16.61,60,64,1.77,SO,1699923409
330,gadzhiyevo,69.2551,33.3362,-8.77,96,87,1.01,RU,1699923409
331,harper,4.375,-7.7169,25.5,90,10,2.65,LR,1699923409
332,naracoorte,-36.9579,140.7383,11.62,93,100,0.81,AU,1699923409
333,san antonio de pale,-1.4014,5.6325,26.17,81,31,3.48,GQ,1699923409
334,ilomantsi,62.6716,30.9328,-1.28,91,97,3.86,FI,1699923410
335,bima,-8.4667,118.7167,33.26,53,28,1.54,ID,1699923410
336,randudongkal,-7.0981,109.3243,28.28,73,90,0.78,ID,1699923410
337,vorotynsk,54.4283,36.0465,4.63,86,100,3.13,RU,1699923410
338,fada,9.5667,8.3,22.17,31,100,1.94,NG,1699923305
339,punta arenas,-53.15,-70.9167,3.06,70,20,8.23,CL,1699923243
340,hami,42.8,93.45,2.54,30,99,3.89,CN,1699923411
341,machali,-34.1833,-70.6667,12.7,70,1,1.39,CL,1699923411
342,santana do paraiso,-19.3636,-42.5686,23.18,53,0,0.51,BR,1699923257
343,ribeira brava,32.65,-17.0667,21.35,79,9,1.0,PT,1699923411
344,anshun,26.25,105.9333,7.95,86,100,0.69,CN,1699923411
345,sittwe,20.15,92.9,24.89,84,100,2.39,MM,1699923411
346,mossel bay,-34.1831,22.146,13.96,85,4,8.6,ZA,1699923412
347,yaren,-0.5472,166.916,27.98,79,100,11.88,NR,1699923412
348,wuwei,37.9281,102.6414,1.99,37,0,0.93,CN,1699923412
349,cascais,38.6979,-9.4215,16.95,92,93,4.02,PT,1699923412
350,vadso,70.0744,29.7487,-7.91,86,88,6.17,NO,1699923412
351,taltal,-25.4,-70.4833,17.92,67,45,1.99,CL,1699923412
352,hammerfest,70.6634,23.6821,-0.75,86,100,1.54,NO,1699923412
353,hasaki,35.7333,140.8333,15.16,38,0,4.32,JP,1699923413
354,pariaman,-0.619,100.12,26.03,87,73,1.3,ID,1699923413
355,island harbour,50.724,-1.2758,13.85,86,38,3.13,GB,1699923413
356,manokwari,-0.8667,134.0833,28.92,72,100,2.48,ID,1699923413
357,pokrovskoye,47.4157,38.8971,7.65,85,100,1.42,RU,1699923413
358,mbouda,5.6258,10.2552,16.53,91,62,0.61,CM,1699923414
359,wulingyuan,29.3494,110.5441,9.1,76,0,0.4,CN,1699923414
360,east ballina,-28.8667,153.5833,27.11,70,66,4.3,AU,1699923414
361,ramadi,33.4226,43.3058,21.47,33,88,1.51,IQ,1699923414
362,pervomayskoye,43.919,46.7102,10.54,95,14,4.26,RU,1699923414
363,filadelfia,39.9523,-75.1638,7.94,70,20,3.6,US,1699923374
364,taber,49.8167,-112.1518,11.0,44,100,8.75,CA,1699923414
365,tangalle,6.024,80.7911,24.09,87,98,2.04,LK,1699923358
366,castillos,-34.1667,-53.8333,15.19,91,100,3.74,UY,1699923251
367,marsa alam,25.0757,34.8918,25.7,77,11,1.34,EG,1699923415
368,cockburn town,21.4612,-71.1419,28.13,76,16,8.32,TC,1699923415
369,tsrar sharif,33.8667,74.7667,4.27,53,0,1.52,IN,1699923415
370,ratnagiri,16.9833,73.3,24.88,63,90,2.48,IN,1699923415
371,syanno,54.8106,29.7069,3.28,78,99,6.65,BY,1699923416
372,queenstown,-31.8976,26.8753,10.43,83,95,3.21,ZA,1699923240
373,tura,25.5198,90.2201,18.81,84,6,1.44,IN,1699923416
374,nova vicosa,-17.8919,-39.3719,24.84,81,83,7.37,BR,1699923416
375,gizo,-8.103,156.8419,27.81,75,100,3.93,SB,1699923416
376,carloforte,39.145,8.3058,19.18,85,69,3.58,IT,1699923416
377,igrim,63.1906,64.4162,-5.68,93,100,5.23,RU,1699923417
378,viseu,40.661,-7.9097,13.74,96,100,0.55,PT,1699923417
379,lushun,38.8,121.2667,6.12,55,100,6.22,CN,1699923417
380,port mathurin,-19.6833,63.4167,24.05,94,20,0.0,MU,1699923417
381,tshikapa,-6.4167,20.8,20.29,95,100,0.43,CD,1699923417
382,vorzel',50.5444,30.153,5.18,86,4,2.97,UA,1699923417
383,hola,51.5377,23.1902,2.1,84,100,3.71,PL,1699923418
384,sarangani,5.4033,125.4636,28.41,76,41,3.48,PH,1699923418
385,dongcun,36.7767,121.1597,5.06,36,99,2.11,CN,1699923418
386,caras,-9.0467,-77.8114,19.33,78,100,1.07,PE,1699923418
387,pirallahi,40.4723,50.333,12.08,85,3,1.93,AZ,1699923418
388,rouissat,31.9243,5.3502,16.04,51,0,0.0,DZ,1699923418
389,sigli,5.3848,95.9609,26.88,81,91,1.43,ID,1699923419
390,la passe,45.5549,-0.8967,16.13,95,100,6.01,FR,1699923419
391,port saint john's,-31.6229,29.5448,16.71,77,100,2.82,ZA,1699923419
392,lepsy,46.235,78.9456,2.4,73,5,1.77,KZ,1699923419
393,tchintabaraden,15.8969,5.7985,22.95,14,2,3.37,NE,1699923419
394,carbonear,47.7332,-53.2148,0.79,80,71,2.68,CA,1699923419
395,krasnozerskoye,53.9828,79.2374,2.19,93,99,3.3,RU,1699923420
396,jiutai,44.1525,125.8328,-5.81,82,5,3.55,CN,1699923420
397,patacamaya,-17.2333,-67.9167,12.37,54,25,4.48,BO,1699923420
398,qamdo,31.1667,97.2333,-4.48,50,64,1.88,CN,1699923420
399,vorkuta,67.5,64.0,-13.66,90,100,3.14,RU,1699923420
400,pavlodol'skaya,43.7192,44.4781,9.36,75,100,3.16,RU,1699923420
401,st. john's,47.5649,-52.7093,0.54,82,75,3.6,CA,1699923420
402,port hedland,-20.3167,118.5667,30.03,45,0,4.63,AU,1699923421
403,cabo san lucas,22.8909,-109.9124,29.17,62,0,2.06,MX,1699923421
404,kaiapoi,-43.3783,172.6401,25.19,38,98,5.66,NZ,1699923421
405,christchurch,-43.5333,172.6333,25.11,38,100,5.66,NZ,1699923243
406,villa de cos,23.2833,-102.35,16.61,71,63,5.03,MX,1699923421
407,taveta,-3.3963,37.6736,21.2,92,22,0.95,KE,1699923421
408,tucuma,-0.1833,-50.05,26.26,80,99,3.58,BR,1699923375
409,tazovsky,67.4667,78.7,-20.04,98,19,2.7,RU,1699923422
410,dymer,50.7865,30.3026,5.53,85,8,4.13,UA,1699923422
411,tucurui,-3.7661,-49.6725,29.35,48,36,0.91,BR,1699923422
412,kota belud,6.351,116.4305,28.62,71,62,0.93,MY,1699923414
413,madingou,-4.1536,13.55,23.59,95,100,0.67,CG,1699923422
414,ugoofaaru,5.6667,73.0,27.26,78,64,2.94,MV,1699923423
415,qianzhou,28.3167,109.7167,8.95,70,6,0.44,CN,1699923423
416,bonthe,7.5264,-12.505,26.39,86,100,1.86,SL,1699923423
417,hugo,45.16,-92.9933,9.38,60,0,0.45,US,1699923423
418,fort bragg,35.139,-79.006,10.75,79,0,0.0,US,1699923423
419,woolgoolga,-30.1106,153.2007,28.36,68,1,5.81,AU,1699923424
420,dhoro naro,25.5,69.5667,22.16,29,99,3.62,PK,1699923424
421,gore,-46.1028,168.9436,18.75,43,13,6.95,NZ,1699923424
422,broome,42.2506,-75.833,3.98,78,7,1.34,US,1699923424
423,natal,-5.795,-35.2094,27.12,78,20,4.12,BR,1699923424
424,sarikei,2.1167,111.5167,27.23,80,100,1.09,MY,1699923424
425,altai,46.3722,96.2583,-8.45,95,100,2.02,MN,1699923239
426,barclayville,4.6797,-8.2339,24.78,93,9,2.21,LR,1699923425
427,campos altos,-19.6961,-46.1714,24.29,35,30,1.23,BR,1699923425
428,kiffa,16.6166,-11.4045,26.76,11,3,4.66,MR,1699923425
429,bni bouayach,35.1022,-3.841,13.31,72,0,1.54,MA,1699923425
430,orange walk,17.8333,-88.8333,23.43,98,100,1.27,BZ,1699923346
431,frutal,-20.0247,-48.9406,31.98,26,84,2.04,BR,1699923425
432,bengkulu,-3.8004,102.2655,25.79,87,92,0.8,ID,1699923426
433,chernyshevskiy,63.0128,112.4714,-10.67,96,100,2.68,RU,1699923426
434,kiunga,-6.1219,141.2906,32.58,53,9,0.75,PG,1699923426
435,kitimat,54.0524,-128.6534,3.21,77,90,1.75,CA,1699923426
436,kuta,-8.7233,115.1723,28.97,83,75,2.68,ID,1699923426
437,brisas de zicatela,15.8369,-97.0419,27.76,75,100,1.45,MX,1699923427
438,al burayqah,30.4062,19.5739,22.35,62,0,6.66,LY,1699923427
439,aleksandrovsk-sakhalinskiy,50.8975,142.1561,-3.84,84,100,5.75,RU,1699923427
440,mar del plata,-38.0023,-57.5575,15.53,48,0,7.6,AR,1699923427
441,karak city,31.1637,35.762,16.81,54,5,1.95,JO,1699923427
442,farafangana,-22.8167,47.8333,21.72,92,47,1.64,MG,1699923428
443,shiyan,32.6475,110.7781,8.58,74,64,1.39,CN,1699923428
444,pionerskiy,54.9508,20.2275,5.08,85,100,4.74,RU,1699923429
445,port augusta,-32.5,137.7667,24.82,39,78,6.38,AU,1699923278
446,narrabri,-30.3167,149.7833,31.96,37,8,2.24,AU,1699923430
447,yei,4.095,30.6779,19.17,95,100,0.92,SS,1699923430
448,okhotsk,59.3833,143.3,-15.34,78,100,7.13,RU,1699923430
449,rakops,-21.0167,24.3333,25.37,45,12,6.15,BW,1699923430
450,florence,43.7667,11.25,15.75,96,75,1.54,IT,1699923190
451,pemangkat,1.1667,108.9667,27.39,81,71,2.62,ID,1699923430
452,greymouth,-42.4667,171.2,13.71,97,100,4.37,NZ,1699923431
453,rosporden,47.9667,-3.8333,13.78,87,100,6.62,FR,1699923431
454,kualakapuas,-3.0091,114.3876,28.87,72,100,1.53,ID,1699923431
455,polyarnyy,69.1989,33.4478,-8.84,96,86,0.86,RU,1699923334
456,luwingu,-10.2621,29.9271,17.98,87,100,1.22,ZM,1699923432
457,shubarshi,48.5872,57.1869,4.7,74,97,7.24,KZ,1699923432
458,camilla,31.2313,-84.2105,16.28,47,100,4.5,US,1699923432
459,hadibu,12.65,54.0333,26.19,86,85,4.98,YE,1699923432
460,joal-fadiout,14.1667,-16.8333,27.94,37,100,6.6,SN,1699923432
461,ziniare,12.5822,-1.2983,25.02,15,38,4.25,BF,1699923433
462,piton saint-leu,-21.2196,55.3151,20.78,64,19,2.57,RE,1699923433
463,barranca,-10.75,-77.7667,19.5,84,29,3.65,PE,1699923433
464,nohar,29.1833,74.7667,18.42,40,100,2.0,IN,1699923433
465,sao vicente,-23.9631,-46.3919,28.1,26,65,3.01,BR,1699923203
466,tlaxco,19.6167,-98.1167,11.95,90,94,3.3,MX,1699923433
467,homer,59.6425,-151.5483,5.93,67,20,7.72,US,1699923434
468,labuan,5.2767,115.2417,29.2,84,20,0.0,MY,1699923156
469,el porvenir,13.7617,-87.3458,25.63,91,100,2.29,HN,1699923434
470,pacific grove,36.6177,-121.9166,15.76,80,10,2.68,US,1699923434
471,patnongon,10.9132,121.9937,29.3,67,100,2.43,PH,1699923434
472,port lincoln,-34.7333,135.8667,16.73,70,64,4.74,AU,1699923339
473,shingu,33.7333,135.9833,13.69,54,0,2.16,JP,1699923434
474,ishim,56.1128,69.4902,3.35,82,100,3.58,RU,1699923435
475,labytnangi,66.6572,66.4183,-20.01,100,100,0.57,RU,1699923435
476,velikiye luki,56.34,30.5452,1.67,97,100,3.62,RU,1699923435
477,fortuna,40.5982,-124.1573,14.81,91,0,0.0,US,1699923298
478,lanivtsi,49.8633,26.0908,3.82,79,99,3.52,UA,1699923435
479,haifa,32.8156,34.9892,22.38,74,6,2.92,IL,1699923436
480,pizarro,4.9533,-77.366,26.27,90,14,1.76,CO,1699923436
481,valparaiso,-33.0393,-71.6273,15.8,55,0,5.66,CL,1699923248
482,saudarkrokur,65.7461,-19.6394,-1.58,83,10,4.2,IS,1699923436
483,gaspe,48.8334,-64.4819,-0.05,80,100,2.06,CA,1699923437
484,palmares do sul,-30.2578,-50.5097,20.1,96,99,1.74,BR,1699923437
485,necocli,8.4234,-76.786,26.23,92,100,1.3,CO,1699923437
486,razdol'noye,45.7708,33.4878,7.83,91,100,2.31,UA,1699923437
487,kargasok,59.0556,80.8572,-8.91,94,75,2.68,RU,1699923437
488,male,4.1748,73.5089,26.97,89,75,1.54,MV,1699923437
489,yamba,-5.9,22.3,20.65,94,100,1.59,CD,1699923438
490,katsuura,35.1333,140.3,13.9,42,0,0.47,JP,1699923438
491,yauya,-8.9833,-77.3,12.95,72,100,2.42,PE,1699923438
492,geraldton,-28.7667,114.6,23.23,73,100,4.12,AU,1699923438
493,kodinsk,58.6881,99.1844,0.8,98,100,4.24,RU,1699923438
494,tsaratanana,-16.7833,47.65,23.63,81,0,0.76,MG,1699923438
495,tolanaro,-25.0319,46.9987,22.04,88,40,2.06,MG,1699923242
496,kruisfontein,-34.0033,24.7314,12.12,89,60,2.6,ZA,1699923253
497,rapid city,44.0805,-103.231,14.92,28,0,4.63,US,1699923412
498,santo antonio do ica,-3.1022,-67.9397,25.69,82,100,0.36,BR,1699923439
499,armacao de buzios,-22.7469,-41.8817,27.03,90,76,3.21,BR,1699923204
500,wamba,8.9333,8.6,24.04,58,100,1.79,NG,1699923440
501,yeppoon,-23.1333,150.7333,28.88,54,0,5.66,AU,1699923440
502,selfoss,63.9331,-20.9971,6.69,71,100,7.98,IS,1699923439
503,mata-utu,-13.2816,-176.1745,28.96,75,79,4.34,WF,1699923440
504,san carlos,9.6612,-68.5827,24.86,85,99,1.44,VE,1699923251
505,xianning,29.8833,114.2167,8.8,63,0,1.13,CN,1699923440
506,poso,-1.3959,120.7524,29.95,64,100,0.42,ID,1699923441
507,suhbaatar,50.2314,106.2078,-10.3,82,100,1.32,MN,1699923441
508,mokhsogollokh,61.4681,128.9203,-21.22,98,83,0.77,RU,1699923441
509,christiana,-27.914,25.1611,17.23,21,0,5.09,ZA,1699923441
510,pallasovka,50.05,46.8833,6.04,79,100,3.16,RU,1699923441
511,kuybyshev,55.4475,78.3218,1.8,89,100,1.32,RU,1699923441
512,guanambi,-14.2233,-42.7814,26.57,30,0,1.93,BR,1699923442
513,enriquillo,17.9,-71.2333,26.18,86,0,4.89,DO,1699923442
514,rabo de peixe,37.8,-25.5833,16.73,99,40,6.69,PT,1699923442
515,watertown,42.3709,-71.1828,5.19,63,100,3.09,US,1699923226
516,kirkwood,38.5834,-90.4068,13.77,43,20,0.0,US,1699923153
517,fort morgan,40.2503,-103.8,12.68,20,6,4.12,US,1699923289
518,buala,-8.145,159.5921,28.92,72,73,2.13,SB,1699923443
519,nar'yan-mar,67.6713,53.087,-11.05,88,100,4.02,RU,1699923443
520,quatre cocos,-20.2078,57.7625,23.38,75,0,2.51,MU,1699923319
521,pavilosta,56.8879,21.1859,3.95,75,95,2.06,LV,1699923443
522,ambon,-3.6954,128.1814,30.08,70,20,2.57,ID,1699923444
523,champerico,14.3,-91.9167,29.3,79,24,1.71,GT,1699923444
524,fuman,37.2273,49.3142,16.62,73,6,1.04,IR,1699923444
525,mairi,-11.7114,-40.1489,22.83,66,0,3.72,BR,1699923444
526,i-n-salah,27.1935,2.4607,20.17,31,0,5.12,DZ,1699923444
527,gorontalo,0.5412,123.0595,31.09,63,63,0.32,ID,1699923205
528,nova prata,-28.7839,-51.61,19.04,99,100,0.39,BR,1699923445
529,cam ranh,11.9214,109.1591,24.98,100,40,6.17,VN,1699923445
530,santa barbara,34.7333,-120.0343,16.05,61,0,3.09,US,1699923445
531,beau vallon,-20.4189,57.6953,23.45,94,75,1.54,MU,1699923445
532,barkhera kalan,28.45,79.8,18.17,47,100,1.59,IN,1699923445
533,maile,-38.9466,-72.3727,9.34,95,99,0.61,CL,1699923445
534,monster,52.0258,4.175,13.34,81,75,12.35,NL,1699923446
535,camana,-16.6228,-72.7111,19.34,82,91,3.21,PE,1699923446
536,khandyga,62.6667,135.6,-28.01,99,65,1.32,RU,1699923446
537,dampit,-8.2116,112.7493,27.61,69,46,2.03,ID,1699923446
538,alice springs,-23.7,133.8833,32.75,15,4,3.6,AU,1699923446
539,sao joao de pirabas,-0.7747,-47.1772,26.25,78,99,3.59,BR,1699923447
540,kenai,60.5544,-151.2583,1.05,93,0,3.09,US,1699923447
541,morehead city,34.7229,-76.726,12.77,81,0,0.0,US,1699923431
542,tibanbang,6.6315,126.1055,27.85,76,28,0.86,PH,1699923447
543,katsuren-haebaru,26.3369,127.8719,22.21,49,75,4.63,JP,1699923301
544,roma,43.2128,-75.4557,4.93,72,75,3.09,US,1699923447
545,hohhot,40.8106,111.6522,-9.84,67,0,2.0,CN,1699923447
546,metlili chaamba,32.2667,3.6333,14.52,44,0,1.54,DZ,1699923448
547,yumaguzino,52.9041,56.3933,5.4,76,100,5.91,RU,1699923448
548,pontes e lacerda,-15.2261,-59.3353,26.43,67,89,1.47,BR,1699923448
549,praia da vitoria,38.7333,-27.0667,15.98,94,20,1.2,PT,1699923448
550,nkowakowa,-23.8878,30.2871,17.28,90,100,3.22,ZA,1699923448
551,tulum,20.2167,-87.4667,25.04,94,100,2.9,MX,1699923449
552,westport,41.1415,-73.3579,7.11,77,12,0.45,US,1699923423
553,isangel,-19.55,169.2667,26.06,69,75,3.09,VU,1699923449
554,haiku-pauwela,20.9219,-156.3051,28.01,62,20,11.32,US,1699923449
555,sao joao da barra,-21.6403,-41.0511,26.05,89,100,5.3,BR,1699923449
556,illizi,26.4833,8.4667,16.89,36,0,2.61,DZ,1699923449
557,maharajgani,26.1167,84.4833,19.38,56,73,1.28,IN,1699923450
558,el calafate,-50.3408,-72.2768,3.94,54,100,5.17,AR,1699923450
559,vilyuysk,63.7553,121.6247,-14.89,97,100,2.15,RU,1699923450
560,pangody,65.85,74.4859,-18.79,100,100,2.88,RU,1699923450
561,xiva,41.3783,60.3639,0.99,33,12,4.78,UZ,1699923450
562,zuni pueblo,35.0725,-108.8506,15.35,33,2,0.77,US,1699923452
563,colares,38.7992,-9.4469,16.85,91,100,4.02,PT,1699923452
564,contamana,-7.3333,-75.0167,27.88,65,62,1.24,PE,1699923452
565,rethymno,35.3647,24.4714,16.79,76,15,2.43,GR,1699923452
566,darovskoy,58.77,47.9564,2.57,96,100,4.85,RU,1699923453
567,puerto baquerizo moreno,-0.9,-89.6,23.66,84,100,4.9,EC,1699923453
568,sultanah,24.4926,39.5857,25.25,29,20,2.06,SA,1699923453
569,puerto armuelles,8.2833,-82.8667,28.98,84,100,3.13,PA,1699923453
570,egilsstadir,65.2653,-14.3948,1.95,87,75,4.63,IS,1699923454
571,pandan,14.0453,124.1694,27.58,85,98,7.01,PH,1699923454
572,badiyah,22.45,58.8,20.81,43,57,1.95,OM,1699923454
573,ciudad constitucion,25.0369,-111.6644,26.46,42,72,5.72,MX,1699923454
574,harstad,68.799,16.5293,-2.99,70,3,5.36,NO,1699923454
575,coremas,-7.0144,-37.9458,29.8,35,39,5.13,BR,1699923455
576,new norfolk,-42.7826,147.0587,18.17,37,11,3.2,AU,1699923455
577,al hasakah,36.5024,40.7477,18.9,40,100,2.99,SY,1699923455
578,llerena,38.2354,-6.0739,13.01,78,7,0.81,ES,1699923455
579,palo santo,-25.5633,-59.3378,21.61,97,100,2.55,AR,1699923455
580,papao,-17.75,-149.55,28.82,91,94,6.45,PF,1699923455
581,kolonia,50.9333,6.95,12.71,76,20,7.72,DE,1699923347
582,al qusayr,34.5091,36.5798,17.78,63,100,1.18,SY,1699923456
583,fuglafjordur,62.244,-6.814,7.26,77,23,10.12,FO,1699923456
584,san andres,12.5847,-81.7006,28.01,83,20,1.03,CO,1699923456
585,morant bay,17.8815,-76.4093,28.79,84,6,5.06,JM,1699923456
586,campo mourao,-24.0456,-52.3831,24.16,77,10,3.09,BR,1699923363
587,gracemere,-23.4333,150.45,28.95,39,0,3.6,AU,1699923457
588,rawson,-43.3002,-65.1023,16.15,25,100,11.65,AR,1699923457
